[
  {"name": "Mount Rainier", "lat": 46.8523, "lon": -121.7603, "elevation_ft": 14411, "nwac_zone_slug": "cascade-west-south", "nearest_snotel": "679:WA:SNTL"},
  {"name": "Mount Adams", "lat": 46.2024, "lon": -121.4909, "elevation_ft": 12281, "nwac_zone_slug": "cascade-west-south", "nearest_snotel": "804:WA:SNTL"},
  {"name": "Little Tahoma", "lat": 46.8486, "lon": -121.7275, "elevation_ft": 11138, "nwac_zone_slug": "cascade-west-south", "nearest_snotel": "679:WA:SNTL"},
  {"name": "Mount Baker", "lat": 48.7768, "lon": -121.8145, "elevation_ft": 10781, "nwac_zone_slug": "cascade-west-north-baker", "nearest_snotel": "909:WA:SNTL"},
  {"name": "Glacier Peak", "lat": 48.1117, "lon": -121.1139, "elevation_ft": 10541, "nwac_zone_slug": "cascade-west-central", "nearest_snotel": "515:WA:SNTL"},
  {"name": "Bonanza Peak", "lat": 48.1572, "lon": -120.6535, "elevation_ft": 9511, "nwac_zone_slug": "cascade-east-central", "nearest_snotel": "515:WA:SNTL"},
  {"name": "Mount Stuart", "lat": 47.4751, "lon": -120.9024, "elevation_ft": 9415, "nwac_zone_slug": "cascade-east-central", "nearest_snotel": "791:WA:SNTL"},
  {"name": "Mount Fernow", "lat": 48.0645, "lon": -120.8001, "elevation_ft": 9249, "nwac_zone_slug": "cascade-east-central", "nearest_snotel": "515:WA:SNTL"},
  {"name": "Mount Shuksan", "lat": 48.8308, "lon": -121.5925, "elevation_ft": 9131, "nwac_zone_slug": "cascade-west-north-baker", "nearest_snotel": "909:WA:SNTL"},
  {"name": "Mount Buckner", "lat": 48.5285, "lon": -121.0627, "elevation_ft": 9114, "nwac_zone_slug": "cascade-west-central", "nearest_snotel": "515:WA:SNTL"},
  {"name": "Jack Mountain", "lat": 48.7284, "lon": -121.0402, "elevation_ft": 9066, "nwac_zone_slug": "cascade-west-north-baker", "nearest_snotel": "515:WA:SNTL"},
  {"name": "Mount Logan", "lat": 48.4943, "lon": -121.0000, "elevation_ft": 9087, "nwac_zone_slug": "cascade-west-central", "nearest_snotel": "515:WA:SNTL"},
  {"name": "Mount Goode", "lat": 48.4389, "lon": -120.8694, "elevation_ft": 9200, "nwac_zone_slug": "cascade-east-central", "nearest_snotel": "515:WA:SNTL"},
  {"name": "North Gardner Mountain", "lat": 48.4756, "lon": -120.4519, "elevation_ft": 8956, "nwac_zone_slug": "cascade-east-central", "nearest_snotel": "515:WA:SNTL"},
  {"name": "Copper Peak", "lat": 48.0567, "lon": -120.7356, "elevation_ft": 8966, "nwac_zone_slug": "cascade-east-central", "nearest_snotel": "515:WA:SNTL"},
  {"name": "Mount Spickard", "lat": 48.9564, "lon": -121.2081, "elevation_ft": 8979, "nwac_zone_slug": "cascade-west-north-baker", "nearest_snotel": "909:WA:SNTL"},
  {"name": "Seven Fingered Jack", "lat": 48.1400, "lon": -120.7519, "elevation_ft": 9100, "nwac_zone_slug": "cascade-east-central", "nearest_snotel": "515:WA:SNTL"},
  {"name": "Black Peak", "lat": 48.5375, "lon": -120.8444, "elevation_ft": 8970, "nwac_zone_slug": "cascade-east-central", "nearest_snotel": "515:WA:SNTL"},
  {"name": "Mount Maude", "lat": 48.1203, "lon": -120.7425, "elevation_ft": 9082, "nwac_zone_slug": "cascade-east-central", "nearest_snotel": "515:WA:SNTL"},
  {"name": "Mount Redoubt", "lat": 48.9494, "lon": -121.2900, "elevation_ft": 8969, "nwac_zone_slug": "cascade-west-north-baker", "nearest_snotel": "909:WA:SNTL"},
  {"name": "Dome Peak", "lat": 48.2936, "lon": -121.0458, "elevation_ft": 8920, "nwac_zone_slug": "cascade-west-central", "nearest_snotel": "515:WA:SNTL"},
  {"name": "Eldorado Peak", "lat": 48.5672, "lon": -121.1469, "elevation_ft": 8868, "nwac_zone_slug": "cascade-west-central", "nearest_snotel": "515:WA:SNTL"},
  {"name": "Forbidden Peak", "lat": 48.5106, "lon": -121.0656, "elevation_ft": 8815, "nwac_zone_slug": "cascade-west-central", "nearest_snotel": "515:WA:SNTL"},
  {"name": "Dragontail Peak", "lat": 47.4760, "lon": -120.8340, "elevation_ft": 8840, "nwac_zone_slug": "cascade-east-central", "nearest_snotel": "791:WA:SNTL"},
  {"name": "Mount Challenger", "lat": 48.8444, "lon": -121.3556, "elevation_ft": 8236, "nwac_zone_slug": "cascade-west-north-baker", "nearest_snotel": "909:WA:SNTL"},
  {"name": "Colchuck Peak", "lat": 47.4881, "lon": -120.8319, "elevation_ft": 8705, "nwac_zone_slug": "cascade-east-central", "nearest_snotel": "791:WA:SNTL"},
  {"name": "Clark Mountain", "lat": 48.2558, "lon": -120.8806, "elevation_ft": 8602, "nwac_zone_slug": "cascade-east-central", "nearest_snotel": "515:WA:SNTL"},
  {"name": "Cannon Mountain", "lat": 48.3236, "lon": -120.5417, "elevation_ft": 8638, "nwac_zone_slug": "cascade-east-central", "nearest_snotel": "515:WA:SNTL"},
  {"name": "Mount Fury", "lat": 48.7781, "lon": -121.1231, "elevation_ft": 8288, "nwac_zone_slug": "cascade-west-north-baker", "nearest_snotel": "909:WA:SNTL"},
  {"name": "Mesahchie Peak", "lat": 48.5511, "lon": -120.9222, "elevation_ft": 8795, "nwac_zone_slug": "cascade-east-central", "nearest_snotel": "515:WA:SNTL"},
  {"name": "Big Four Mountain", "lat": 48.0586, "lon": -121.5064, "elevation_ft": 6135, "nwac_zone_slug": "cascade-west-central", "nearest_snotel": "515:WA:SNTL"},
  {"name": "Mount Olympus", "lat": 47.8013, "lon": -123.7106, "elevation_ft": 7980, "nwac_zone_slug": "olympics", "nearest_snotel": "1008:WA:SNTL"},
  {"name": "Silver Star Mountain", "lat": 48.5300, "lon": -120.5589, "elevation_ft": 8876, "nwac_zone_slug": "cascade-east-central", "nearest_snotel": "515:WA:SNTL"},
  {"name": "Sahale Peak", "lat": 48.5094, "lon": -121.0431, "elevation_ft": 8680, "nwac_zone_slug": "cascade-west-central", "nearest_snotel": "515:WA:SNTL"},
  {"name": "Mount Triumph", "lat": 48.6722, "lon": -121.2394, "elevation_ft": 7270, "nwac_zone_slug": "cascade-west-central", "nearest_snotel": "515:WA:SNTL"},
  {"name": "Mount Formidable", "lat": 48.3322, "lon": -121.0417, "elevation_ft": 8325, "nwac_zone_slug": "cascade-west-central", "nearest_snotel": "515:WA:SNTL"},
  {"name": "Snowfield Peak", "lat": 48.5853, "lon": -121.1233, "elevation_ft": 8347, "nwac_zone_slug": "cascade-west-central", "nearest_snotel": "515:WA:SNTL"},
  {"name": "Lincoln Peak", "lat": 48.7694, "lon": -121.7753, "elevation_ft": 9096, "nwac_zone_slug": "cascade-west-north-baker", "nearest_snotel": "909:WA:SNTL"},
  {"name": "Sinister Peak", "lat": 48.3119, "lon": -121.0625, "elevation_ft": 8440, "nwac_zone_slug": "cascade-west-central", "nearest_snotel": "515:WA:SNTL"},
  {"name": "Primus Peak", "lat": 48.2450, "lon": -120.9239, "elevation_ft": 8508, "nwac_zone_slug": "cascade-east-central", "nearest_snotel": "515:WA:SNTL"},
  {"name": "Argonaut Peak", "lat": 47.5072, "lon": -120.9333, "elevation_ft": 8453, "nwac_zone_slug": "cascade-east-central", "nearest_snotel": "791:WA:SNTL"},
  {"name": "Sherpa Peak", "lat": 47.4822, "lon": -120.8881, "elevation_ft": 8605, "nwac_zone_slug": "cascade-east-central", "nearest_snotel": "791:WA:SNTL"},
  {"name": "Star Peak", "lat": 48.2761, "lon": -120.7944, "elevation_ft": 8520, "nwac_zone_slug": "cascade-east-central", "nearest_snotel": "515:WA:SNTL"},
  {"name": "Enchantment Peak", "lat": 47.4947, "lon": -120.8117, "elevation_ft": 8520, "nwac_zone_slug": "cascade-east-central", "nearest_snotel": "791:WA:SNTL"},
  {"name": "McClellan Peak", "lat": 47.5000, "lon": -120.8044, "elevation_ft": 8364, "nwac_zone_slug": "cascade-east-central", "nearest_snotel": "791:WA:SNTL"},
  {"name": "Luahna Peak", "lat": 48.1467, "lon": -120.6517, "elevation_ft": 8441, "nwac_zone_slug": "cascade-east-central", "nearest_snotel": "515:WA:SNTL"},
  {"name": "Fortress Mountain", "lat": 48.0489, "lon": -120.7289, "elevation_ft": 8674, "nwac_zone_slug": "cascade-east-central", "nearest_snotel": "515:WA:SNTL"},
  {"name": "Chiwawa Mountain", "lat": 48.0606, "lon": -120.7653, "elevation_ft": 8459, "nwac_zone_slug": "cascade-east-central", "nearest_snotel": "515:WA:SNTL"},
  {"name": "Dumbell Mountain", "lat": 48.0422, "lon": -120.6753, "elevation_ft": 8421, "nwac_zone_slug": "cascade-east-central", "nearest_snotel": "515:WA:SNTL"},
  {"name": "Mount Lago", "lat": 48.6736, "lon": -120.4203, "elevation_ft": 8745, "nwac_zone_slug": "cascade-east-north", "nearest_snotel": "515:WA:SNTL"},
  {"name": "Oval Peak", "lat": 48.4056, "lon": -120.5444, "elevation_ft": 8795, "nwac_zone_slug": "cascade-east-central", "nearest_snotel": "515:WA:SNTL"},
  {"name": "Cardinal Peak", "lat": 48.2889, "lon": -120.5750, "elevation_ft": 8590, "nwac_zone_slug": "cascade-east-central", "nearest_snotel": "515:WA:SNTL"},
  {"name": "Klawatti Peak", "lat": 48.5489, "lon": -121.0958, "elevation_ft": 8485, "nwac_zone_slug": "cascade-west-central", "nearest_snotel": "515:WA:SNTL"},
  {"name": "Reynolds Peak", "lat": 48.4417, "lon": -120.5417, "elevation_ft": 8512, "nwac_zone_slug": "cascade-east-central", "nearest_snotel": "515:WA:SNTL"},
  {"name": "Devore Peak", "lat": 48.0756, "lon": -120.6639, "elevation_ft": 8360, "nwac_zone_slug": "cascade-east-central", "nearest_snotel": "515:WA:SNTL"},
  {"name": "Martin Peak", "lat": 48.1194, "lon": -120.7961, "elevation_ft": 8511, "nwac_zone_slug": "cascade-east-central", "nearest_snotel": "515:WA:SNTL"},
  {"name": "Emerald Peak", "lat": 48.1400, "lon": -120.8158, "elevation_ft": 8422, "nwac_zone_slug": "cascade-east-central", "nearest_snotel": "515:WA:SNTL"},
  {"name": "Spectacle Buttes", "lat": 48.1019, "lon": -120.7033, "elevation_ft": 8392, "nwac_zone_slug": "cascade-east-central", "nearest_snotel": "515:WA:SNTL"},
  {"name": "Mount Lago", "lat": 48.6736, "lon": -120.4203, "elevation_ft": 8745, "nwac_zone_slug": "cascade-east-north", "nearest_snotel": "515:WA:SNTL"},
  {"name": "Pinnacle Peak", "lat": 46.7669, "lon": -121.7219, "elevation_ft": 6562, "nwac_zone_slug": "cascade-west-south", "nearest_snotel": "679:WA:SNTL"},
  {"name": "Mount St. Helens", "lat": 46.1912, "lon": -122.1944, "elevation_ft": 8365, "nwac_zone_slug": "cascade-west-south", "nearest_snotel": "804:WA:SNTL"},
  {"name": "Mount Hood", "lat": 45.3735, "lon": -121.6959, "elevation_ft": 11249, "nwac_zone_slug": "mt-hood", "nearest_snotel": "651:OR:SNTL"},
  {"name": "Sloan Peak", "lat": 48.0414, "lon": -121.3347, "elevation_ft": 7835, "nwac_zone_slug": "cascade-west-central", "nearest_snotel": "515:WA:SNTL"},
  {"name": "Whitehorse Mountain", "lat": 48.1617, "lon": -121.6072, "elevation_ft": 6852, "nwac_zone_slug": "cascade-west-central", "nearest_snotel": "515:WA:SNTL"},
  {"name": "Three Fingers", "lat": 48.1522, "lon": -121.4964, "elevation_ft": 6854, "nwac_zone_slug": "cascade-west-central", "nearest_snotel": "515:WA:SNTL"},
  {"name": "Mount Shasta", "lat": 41.4092, "lon": -122.1949, "elevation_ft": 14179, "nwac_zone_slug": null, "nearest_snotel": "806:CA:SNTL"},
  {"name": "Mount Index", "lat": 47.8164, "lon": -121.4886, "elevation_ft": 5979, "nwac_zone_slug": "cascade-west-central", "nearest_snotel": "791:WA:SNTL"},
  {"name": "Johannesburg Mountain", "lat": 48.4842, "lon": -121.0739, "elevation_ft": 8200, "nwac_zone_slug": "cascade-west-central", "nearest_snotel": "515:WA:SNTL"},
  {"name": "Austera Peak", "lat": 48.5561, "lon": -121.0992, "elevation_ft": 8334, "nwac_zone_slug": "cascade-west-central", "nearest_snotel": "515:WA:SNTL"},
  {"name": "Bear Mountain", "lat": 48.7506, "lon": -121.1269, "elevation_ft": 7931, "nwac_zone_slug": "cascade-west-north-baker", "nearest_snotel": "909:WA:SNTL"},
  {"name": "Hozomeen Mountain", "lat": 48.9592, "lon": -121.0350, "elevation_ft": 8066, "nwac_zone_slug": "cascade-west-north-baker", "nearest_snotel": "909:WA:SNTL"},
  {"name": "Colonial Peak", "lat": 48.6117, "lon": -121.1875, "elevation_ft": 7771, "nwac_zone_slug": "cascade-west-central", "nearest_snotel": "515:WA:SNTL"},
  {"name": "Goat Mountain", "lat": 48.3756, "lon": -121.0647, "elevation_ft": 8348, "nwac_zone_slug": "cascade-west-central", "nearest_snotel": "515:WA:SNTL"},
  {"name": "Custer Peak", "lat": 48.9481, "lon": -121.2531, "elevation_ft": 8630, "nwac_zone_slug": "cascade-west-north-baker", "nearest_snotel": "909:WA:SNTL"},
  {"name": "Rahm Peak", "lat": 48.9392, "lon": -121.2403, "elevation_ft": 8504, "nwac_zone_slug": "cascade-west-north-baker", "nearest_snotel": "909:WA:SNTL"},
  {"name": "Tenpeak Mountain", "lat": 48.1942, "lon": -121.0917, "elevation_ft": 7430, "nwac_zone_slug": "cascade-west-central", "nearest_snotel": "515:WA:SNTL"},
  {"name": "Kimtah Peak", "lat": 48.4217, "lon": -120.9361, "elevation_ft": 8600, "nwac_zone_slug": "cascade-east-central", "nearest_snotel": "515:WA:SNTL"},
  {"name": "Mixup Peak", "lat": 48.4722, "lon": -121.0361, "elevation_ft": 7440, "nwac_zone_slug": "cascade-west-central", "nearest_snotel": "515:WA:SNTL"},
  {"name": "Whittier Peak", "lat": 48.5656, "lon": -121.0836, "elevation_ft": 7598, "nwac_zone_slug": "cascade-west-central", "nearest_snotel": "515:WA:SNTL"},
  {"name": "Castle Peak", "lat": 48.5567, "lon": -120.4050, "elevation_ft": 8306, "nwac_zone_slug": "cascade-east-north", "nearest_snotel": "515:WA:SNTL"},
  {"name": "Raven Ridge", "lat": 48.9592, "lon": -121.3592, "elevation_ft": 7990, "nwac_zone_slug": "cascade-west-north-baker", "nearest_snotel": "909:WA:SNTL"},
  {"name": "South Gardner Mountain", "lat": 48.4389, "lon": -120.4444, "elevation_ft": 8368, "nwac_zone_slug": "cascade-east-central", "nearest_snotel": "515:WA:SNTL"},
  {"name": "Stiletto Peak", "lat": 48.4903, "lon": -120.5861, "elevation_ft": 7660, "nwac_zone_slug": "cascade-east-central", "nearest_snotel": "515:WA:SNTL"},
  {"name": "Ptarmigan Peak", "lat": 48.2792, "lon": -121.1333, "elevation_ft": 7452, "nwac_zone_slug": "cascade-west-central", "nearest_snotel": "515:WA:SNTL"},
  {"name": "Crater Mountain", "lat": 48.6594, "lon": -121.0756, "elevation_ft": 8128, "nwac_zone_slug": "cascade-west-central", "nearest_snotel": "515:WA:SNTL"},
  {"name": "Azurite Peak", "lat": 48.5917, "lon": -120.5592, "elevation_ft": 8400, "nwac_zone_slug": "cascade-east-north", "nearest_snotel": "515:WA:SNTL"},
  {"name": "Horseshoe Peak", "lat": 48.0578, "lon": -120.8136, "elevation_ft": 8480, "nwac_zone_slug": "cascade-east-central", "nearest_snotel": "515:WA:SNTL"},
  {"name": "Mount Despair", "lat": 48.6556, "lon": -121.2286, "elevation_ft": 7292, "nwac_zone_slug": "cascade-west-central", "nearest_snotel": "515:WA:SNTL"},
  {"name": "Mox Peaks - Twin Spires", "lat": 48.8253, "lon": -121.1994, "elevation_ft": 8504, "nwac_zone_slug": "cascade-west-north-baker", "nearest_snotel": "909:WA:SNTL"},
  {"name": "Mount Terror", "lat": 48.5275, "lon": -121.1119, "elevation_ft": 8151, "nwac_zone_slug": "cascade-west-central", "nearest_snotel": "515:WA:SNTL"},
  {"name": "Katsuk Peak", "lat": 48.4764, "lon": -120.9319, "elevation_ft": 8680, "nwac_zone_slug": "cascade-east-central", "nearest_snotel": "515:WA:SNTL"},
  {"name": "Remmel Mountain", "lat": 48.8792, "lon": -120.1758, "elevation_ft": 8685, "nwac_zone_slug": "cascade-east-north", "nearest_snotel": "515:WA:SNTL"},
  {"name": "Lake Mountain", "lat": 48.0700, "lon": -120.6086, "elevation_ft": 8340, "nwac_zone_slug": "cascade-east-central", "nearest_snotel": "515:WA:SNTL"},
  {"name": "Pinnacle Mountain", "lat": 48.4822, "lon": -120.6853, "elevation_ft": 8402, "nwac_zone_slug": "cascade-east-central", "nearest_snotel": "515:WA:SNTL"},
  {"name": "Mount Carru", "lat": 48.3267, "lon": -120.8733, "elevation_ft": 8595, "nwac_zone_slug": "cascade-east-central", "nearest_snotel": "515:WA:SNTL"},
  {"name": "Painted Mountain", "lat": 48.1267, "lon": -120.5483, "elevation_ft": 7960, "nwac_zone_slug": "cascade-east-central", "nearest_snotel": "515:WA:SNTL"},
  {"name": "Napeequa Peak", "lat": 48.0856, "lon": -120.8472, "elevation_ft": 8073, "nwac_zone_slug": "cascade-east-central", "nearest_snotel": "515:WA:SNTL"},
  {"name": "McGregor Mountain", "lat": 48.3825, "lon": -120.7219, "elevation_ft": 8122, "nwac_zone_slug": "cascade-east-central", "nearest_snotel": "515:WA:SNTL"},
  {"name": "Mount Torment", "lat": 48.5056, "lon": -121.0806, "elevation_ft": 8120, "nwac_zone_slug": "cascade-west-central", "nearest_snotel": "515:WA:SNTL"},
  {"name": "Tupshin Peak", "lat": 48.3886, "lon": -120.8081, "elevation_ft": 8321, "nwac_zone_slug": "cascade-east-central", "nearest_snotel": "515:WA:SNTL"},
  {"name": "Witches Tower", "lat": 47.4747, "lon": -120.8442, "elevation_ft": 8520, "nwac_zone_slug": "cascade-east-central", "nearest_snotel": "791:WA:SNTL"},
  {"name": "Booker Mountain", "lat": 48.4867, "lon": -121.0231, "elevation_ft": 8280, "nwac_zone_slug": "cascade-west-central", "nearest_snotel": "515:WA:SNTL"}
]
