[
  {
    "name": "Mount Rainier",
    "lat": 46.8523,
    "lon": -121.7603,
    "elevation_ft": 14411,
    "nwac_zone_slug": "cascade-west-south",
    "nearest_snotel": "679:WA:SNTL",
    "bulger_rank": 1,
    "ski_mountaineering": {
      "viable": true,
      "quality": "classic",
      "notes": "Muir Snowfield, Emmons Glacier, Fuhrer Finger — premier PNW ski mountaineering with 9,000+ ft descents"
    }
  },
  {
    "name": "Mount Adams",
    "lat": 46.2024,
    "lon": -121.4909,
    "elevation_ft": 12281,
    "nwac_zone_slug": "cascade-west-south",
    "nearest_snotel": "804:WA:SNTL",
    "bulger_rank": 2,
    "ski_mountaineering": {
      "viable": true,
      "quality": "classic",
      "notes": "South Climb / SW Chutes are among the best ski descents in WA; mellow angle, huge vertical"
    }
  },
  {
    "name": "Little Tahoma",
    "lat": 46.8486,
    "lon": -121.7275,
    "elevation_ft": 11138,
    "nwac_zone_slug": "cascade-west-south",
    "nearest_snotel": "679:WA:SNTL",
    "bulger_rank": 3,
    "ski_mountaineering": {
      "viable": true,
      "quality": "classic",
      "notes": "Fryingpan Glacier and east face offer big ski lines on WA's third highest peak; steep and committing"
    }
  },
  {
    "name": "Mount Baker",
    "lat": 48.7768,
    "lon": -121.8145,
    "elevation_ft": 10781,
    "nwac_zone_slug": "cascade-west-north-baker",
    "nearest_snotel": "909:WA:SNTL",
    "bulger_rank": 4,
    "ski_mountaineering": {
      "viable": true,
      "quality": "classic",
      "notes": "Easton Glacier, Coleman-Deming, Roman Wall — deep snowpack, long season, accessible for spring ski tours"
    }
  },
  {
    "name": "Glacier Peak",
    "lat": 48.1117,
    "lon": -121.1139,
    "elevation_ft": 10541,
    "nwac_zone_slug": "cascade-west-central",
    "nearest_snotel": "606:WA:SNTL",
    "bulger_rank": 5,
    "ski_mountaineering": {
      "viable": true,
      "quality": "good",
      "notes": "Sitkum, Chocolate, Cool glaciers all ski well; long approach (20+ mi) limits popularity"
    }
  },
  {
    "name": "Bonanza Peak",
    "lat": 48.1572,
    "lon": -120.6535,
    "elevation_ft": 9511,
    "nwac_zone_slug": "cascade-east-central",
    "nearest_snotel": "606:WA:SNTL",
    "bulger_rank": 6,
    "best_seasons": [
      "summer"
    ],
    "dog_friendly": false,
    "ski_mountaineering": {
      "viable": true,
      "quality": "fair",
      "notes": "Mary Green Glacier offers moderate ski terrain; long approach via Holden Village or Railroad Creek"
    }
  },
  {
    "name": "Mount Stuart",
    "lat": 47.4751,
    "lon": -120.9024,
    "elevation_ft": 9415,
    "nwac_zone_slug": "cascade-east-central",
    "nearest_snotel": "791:WA:SNTL",
    "bulger_rank": 7,
    "ski_mountaineering": {
      "viable": true,
      "quality": "good",
      "notes": "Cascadian Couloir is an excellent spring ski line (Apr-Jun); Sherpa Glacier also skis well"
    },
    "larch_scenery": {
      "quality": "good",
      "notes": "Ingalls Lake approach has scattered larch groves; Ingalls Creek drainage has larch at higher elevations"
    }
  },
  {
    "name": "Mount Fernow",
    "lat": 48.0645,
    "lon": -120.8001,
    "elevation_ft": 9249,
    "nwac_zone_slug": "cascade-east-central",
    "nearest_snotel": "606:WA:SNTL",
    "bulger_rank": 8,
    "best_seasons": [
      "summer",
      "fall"
    ],
    "dog_friendly": false,
    "ski_mountaineering": {
      "viable": true,
      "quality": "fair",
      "notes": "South-side couloirs hold snow into early summer; approach via Phelps Creek adds mileage"
    },
    "larch_scenery": {
      "quality": "excellent",
      "notes": "Phelps Creek approach through Spider Meadow larch; fall colors along the entire valley"
    }
  },
  {
    "name": "Mount Shuksan",
    "lat": 48.8308,
    "lon": -121.5925,
    "elevation_ft": 9131,
    "nwac_zone_slug": "cascade-west-north-baker",
    "nearest_snotel": "909:WA:SNTL",
    "bulger_rank": 10,
    "ski_mountaineering": {
      "viable": true,
      "quality": "classic",
      "notes": "Sulphide Glacier and White Salmon Glacier are premier spring ski tours; summit pyramid requires boot/crampon"
    }
  },
  {
    "name": "Mount Buckner",
    "lat": 48.5285,
    "lon": -121.0627,
    "elevation_ft": 9114,
    "nwac_zone_slug": "cascade-west-central",
    "nearest_snotel": "817:WA:SNTL",
    "bulger_rank": 11,
    "best_seasons": [
      "spring"
    ],
    "dog_friendly": false,
    "ski_mountaineering": {
      "viable": true,
      "quality": "good",
      "notes": "North face has excellent steep skiing; approach via Cascade Pass / Boston Basin or Horseshoe Basin"
    }
  },
  {
    "name": "Jack Mountain",
    "lat": 48.7284,
    "lon": -121.0402,
    "elevation_ft": 9066,
    "nwac_zone_slug": "cascade-west-north-baker",
    "nearest_snotel": "515:WA:SNTL",
    "bulger_rank": 14,
    "best_seasons": [
      "spring"
    ],
    "dog_friendly": false,
    "ski_mountaineering": {
      "viable": true,
      "quality": "fair",
      "notes": "Nohokomeen Glacier offers moderate ski terrain; very remote, requires SR 20 to be open"
    }
  },
  {
    "name": "Mount Logan",
    "lat": 48.4943,
    "lon": -121,
    "elevation_ft": 9087,
    "nwac_zone_slug": "cascade-west-central",
    "nearest_snotel": "817:WA:SNTL",
    "bulger_rank": 13,
    "best_seasons": [
      "spring"
    ],
    "dog_friendly": false,
    "ski_mountaineering": {
      "viable": true,
      "quality": "fair",
      "notes": "Douglas Glacier and Banded Glacier have skiable terrain; extremely remote, multi-day approach"
    }
  },
  {
    "name": "Mount Goode",
    "lat": 48.4389,
    "lon": -120.8694,
    "elevation_ft": 9200,
    "nwac_zone_slug": "cascade-east-central",
    "nearest_snotel": "606:WA:SNTL",
    "bulger_rank": 9,
    "ski_mountaineering": {
      "viable": true,
      "quality": "fair",
      "notes": "NE couloir holds steep snow into summer; remote approach via Lake Chelan and Company Creek"
    }
  },
  {
    "name": "North Gardner Mountain",
    "lat": 48.4756,
    "lon": -120.4519,
    "elevation_ft": 8956,
    "nwac_zone_slug": "cascade-east-central",
    "nearest_snotel": "515:WA:SNTL",
    "bulger_rank": 20,
    "best_seasons": [
      "spring",
      "summer",
      "fall"
    ],
    "dog_friendly": true,
    "ski_mountaineering": {
      "viable": false,
      "quality": "not viable",
      "notes": "Dry east-side scramble peak; snow melts early, terrain is mostly talus and heather"
    }
  },
  {
    "name": "Copper Peak",
    "lat": 48.0567,
    "lon": -120.7356,
    "elevation_ft": 8966,
    "nwac_zone_slug": "cascade-east-central",
    "nearest_snotel": "606:WA:SNTL",
    "bulger_rank": 19,
    "best_seasons": [
      "summer",
      "fall"
    ],
    "dog_friendly": false,
    "ski_mountaineering": {
      "viable": true,
      "quality": "fair",
      "notes": "Moderate glacier terrain on approach; not a destination ski peak but can combo with Fernow/Maude circuit"
    },
    "larch_scenery": {
      "quality": "good",
      "notes": "Phelps Creek drainage has larch on approach; often combined with Fernow/Maude larch circuit"
    }
  },
  {
    "name": "Mount Spickard",
    "lat": 48.9564,
    "lon": -121.2081,
    "elevation_ft": 8979,
    "nwac_zone_slug": "cascade-west-north-baker",
    "nearest_snotel": "909:WA:SNTL",
    "bulger_rank": 16,
    "best_seasons": [
      "spring",
      "summer"
    ],
    "dog_friendly": false,
    "ski_mountaineering": {
      "viable": true,
      "quality": "fair",
      "notes": "Silver Glacier has skiable terrain; extremely remote multi-day trip via Depot Creek or Chilliwack River"
    }
  },
  {
    "name": "Seven Fingered Jack",
    "lat": 48.14,
    "lon": -120.7519,
    "elevation_ft": 9100,
    "nwac_zone_slug": "cascade-east-central",
    "nearest_snotel": "606:WA:SNTL",
    "bulger_rank": 12,
    "best_seasons": [
      "spring"
    ],
    "dog_friendly": true,
    "ski_mountaineering": {
      "viable": true,
      "quality": "fair",
      "notes": "South-face couloirs offer spring ski options; approach via Phelps Creek, often paired with Maude"
    },
    "larch_scenery": {
      "quality": "excellent",
      "notes": "Phelps Creek / Spider Meadow larch corridor on approach; combines alpine climbing with peak fall color"
    }
  },
  {
    "name": "Black Peak",
    "lat": 48.5375,
    "lon": -120.8444,
    "elevation_ft": 8970,
    "nwac_zone_slug": "cascade-east-central",
    "nearest_snotel": "515:WA:SNTL",
    "bulger_rank": 17,
    "ski_mountaineering": {
      "viable": true,
      "quality": "good",
      "notes": "Lewis Glacier and south-face snow slopes offer enjoyable skiing; requires SR 20 open for access"
    },
    "larch_scenery": {
      "quality": "excellent",
      "notes": "Blue Lake / Heather-Maple Pass larch are legendary; approach from Wing Lake or Rainy Pass through prime larch"
    }
  },
  {
    "name": "Mount Maude",
    "lat": 48.1203,
    "lon": -120.7425,
    "elevation_ft": 9082,
    "nwac_zone_slug": "cascade-east-central",
    "nearest_snotel": "606:WA:SNTL",
    "bulger_rank": 15,
    "best_seasons": [
      "spring"
    ],
    "dog_friendly": true,
    "ski_mountaineering": {
      "viable": true,
      "quality": "good",
      "notes": "Ice Cliff Glacier and south couloir ski well; approach via Phelps Creek (gate may add 3 mi)"
    },
    "larch_scenery": {
      "quality": "excellent",
      "notes": "Phelps Creek / Spider Meadow approach passes prime larch groves; Ice Cliff Glacier framed by golden larch"
    }
  },
  {
    "name": "Mount Redoubt",
    "lat": 48.9494,
    "lon": -121.29,
    "elevation_ft": 8969,
    "nwac_zone_slug": "cascade-west-north-baker",
    "nearest_snotel": "909:WA:SNTL",
    "bulger_rank": 18,
    "best_seasons": [
      "spring",
      "summer"
    ],
    "dog_friendly": false,
    "ski_mountaineering": {
      "viable": true,
      "quality": "fair",
      "notes": "Redoubt Glacier offers moderate terrain; extremely remote — typically combined with Spickard as a multi-day"
    }
  },
  {
    "name": "Dome Peak",
    "lat": 48.2936,
    "lon": -121.0458,
    "elevation_ft": 8920,
    "nwac_zone_slug": "cascade-west-central",
    "nearest_snotel": "817:WA:SNTL",
    "bulger_rank": 21,
    "best_seasons": [
      "summer"
    ],
    "dog_friendly": false,
    "ski_mountaineering": {
      "viable": true,
      "quality": "good",
      "notes": "Dome Glacier has excellent moderate-angle skiing; very long approach via Downey Creek or Bachelor Creek"
    }
  },
  {
    "name": "Eldorado Peak",
    "lat": 48.5672,
    "lon": -121.1469,
    "elevation_ft": 8868,
    "nwac_zone_slug": "cascade-west-central",
    "nearest_snotel": "817:WA:SNTL",
    "bulger_rank": 25,
    "ski_mountaineering": {
      "viable": true,
      "quality": "classic",
      "notes": "Eldorado Glacier is an early-season classic — accessible from Cascade River Rd, moderate angle, great corn skiing"
    }
  },
  {
    "name": "Forbidden Peak",
    "lat": 48.5106,
    "lon": -121.0656,
    "elevation_ft": 8815,
    "nwac_zone_slug": "cascade-west-central",
    "nearest_snotel": "817:WA:SNTL",
    "bulger_rank": 27,
    "best_seasons": [
      "summer"
    ],
    "dog_friendly": false,
    "ski_mountaineering": {
      "viable": false,
      "quality": "not viable",
      "notes": "Technical rock summit; approach couloirs can be skied but the peak itself is a rock climb"
    }
  },
  {
    "name": "Dragontail Peak",
    "lat": 47.476,
    "lon": -120.834,
    "elevation_ft": 8840,
    "nwac_zone_slug": "cascade-east-central",
    "nearest_snotel": "791:WA:SNTL",
    "bulger_rank": 26,
    "best_seasons": [
      "summer",
      "fall"
    ],
    "dog_friendly": false,
    "ski_mountaineering": {
      "viable": true,
      "quality": "good",
      "notes": "Triple Couloirs and Colchuck Glacier are classic steep ski lines; spring corn conditions ideal"
    },
    "larch_scenery": {
      "quality": "excellent",
      "notes": "Colchuck Lake / Aasgard Pass larch groves visible on approach; classic fall photo destination"
    }
  },
  {
    "name": "Mount Challenger",
    "lat": 48.8444,
    "lon": -121.3556,
    "elevation_ft": 8236,
    "nwac_zone_slug": "cascade-west-north-baker",
    "nearest_snotel": "909:WA:SNTL",
    "ski_mountaineering": {
      "viable": true,
      "quality": "fair",
      "notes": "Challenger Glacier has moderate terrain; extremely remote Picket Range — multi-day commitment"
    }
  },
  {
    "name": "Colchuck Peak",
    "lat": 47.4881,
    "lon": -120.8319,
    "elevation_ft": 8705,
    "nwac_zone_slug": "cascade-east-central",
    "nearest_snotel": "791:WA:SNTL",
    "bulger_rank": 33,
    "ski_mountaineering": {
      "viable": true,
      "quality": "good",
      "notes": "NE Couloir is a popular steep ski line; excellent spring corn above Colchuck Lake"
    },
    "larch_scenery": {
      "quality": "excellent",
      "notes": "Aasgard Pass and lower Enchantments larch on approach; Colchuck Lake + golden larch backdrop"
    }
  },
  {
    "name": "Clark Mountain",
    "lat": 48.2558,
    "lon": -120.8806,
    "elevation_ft": 8602,
    "nwac_zone_slug": "cascade-east-central",
    "nearest_snotel": "606:WA:SNTL",
    "bulger_rank": 42,
    "best_seasons": [
      "spring",
      "summer"
    ],
    "dog_friendly": false,
    "ski_mountaineering": {
      "viable": true,
      "quality": "classic",
      "notes": "Classic ski tour line; Clark Glacier offers excellent skiing, usually approached from Phelps Creek or Entiat River"
    },
    "larch_scenery": {
      "quality": "excellent",
      "notes": "Phelps Creek / Larch Lakes area; extensive larch groves on approach from multiple directions"
    }
  },
  {
    "name": "Cannon Mountain",
    "lat": 48.3236,
    "lon": -120.5417,
    "elevation_ft": 8638,
    "nwac_zone_slug": "cascade-east-central",
    "nearest_snotel": "515:WA:SNTL",
    "bulger_rank": 38,
    "ski_mountaineering": {
      "viable": false,
      "quality": "not viable",
      "notes": "Dry east-side scramble; mostly talus and heather slopes, snow melts early"
    }
  },
  {
    "name": "Mount Fury",
    "lat": 48.7781,
    "lon": -121.1231,
    "elevation_ft": 8288,
    "nwac_zone_slug": "cascade-west-north-baker",
    "nearest_snotel": "909:WA:SNTL",
    "ski_mountaineering": {
      "viable": false,
      "quality": "not viable",
      "notes": "Extremely remote Picket Range; technical rock and glacier, not a practical ski objective"
    }
  },
  {
    "name": "Mesahchie Peak",
    "lat": 48.5511,
    "lon": -120.9222,
    "elevation_ft": 8795,
    "nwac_zone_slug": "cascade-east-central",
    "nearest_snotel": "817:WA:SNTL",
    "bulger_rank": 28,
    "best_seasons": [
      "spring",
      "summer"
    ],
    "dog_friendly": false,
    "ski_mountaineering": {
      "viable": true,
      "quality": "fair",
      "notes": "Small glaciers and couloirs on north side hold snow; remote approach requires SR 20"
    }
  },
  {
    "name": "Big Four Mountain",
    "lat": 48.0586,
    "lon": -121.5064,
    "elevation_ft": 6135,
    "nwac_zone_slug": "cascade-west-central",
    "nearest_snotel": "515:WA:SNTL",
    "ski_mountaineering": {
      "viable": false,
      "quality": "not viable",
      "notes": "Extremely avalanche-prone north face; ice caves area below is a known hazard zone, not a safe ski objective"
    }
  },
  {
    "name": "Mount Olympus",
    "lat": 47.8013,
    "lon": -123.7106,
    "elevation_ft": 7980,
    "nwac_zone_slug": "olympics",
    "nearest_snotel": "679:WA:SNTL",
    "nearest_snotel_note": "No verified Olympics SNOTEL; using Paradise (5150') as rough proxy — interpret with caution for this west-side peak",
    "ski_mountaineering": {
      "viable": true,
      "quality": "good",
      "notes": "Blue Glacier and Snow Dome ski well; long 18-mi approach via Hoh River trail, multi-day trip"
    }
  },
  {
    "name": "Silver Star Mountain",
    "lat": 48.53,
    "lon": -120.5589,
    "elevation_ft": 8876,
    "nwac_zone_slug": "cascade-east-central",
    "nearest_snotel": "515:WA:SNTL",
    "bulger_rank": 24,
    "ski_mountaineering": {
      "viable": true,
      "quality": "good",
      "notes": "Silver Star Glacier and Wine Spires couloirs are enjoyable ski lines; requires SR 20 for access"
    },
    "larch_scenery": {
      "quality": "good",
      "notes": "Washington Pass / Blue Lake area larch visible on approaches; Cedar Creek has scattered larch"
    }
  },
  {
    "name": "Sahale Peak",
    "lat": 48.5094,
    "lon": -121.0431,
    "elevation_ft": 8680,
    "nwac_zone_slug": "cascade-west-central",
    "nearest_snotel": "817:WA:SNTL",
    "bulger_rank": 36,
    "ski_mountaineering": {
      "viable": true,
      "quality": "good",
      "notes": "Sahale Glacier and Who-Me Couloir are popular ski lines; accessible via Cascade Pass when road opens"
    }
  },
  {
    "name": "Mount Triumph",
    "lat": 48.6722,
    "lon": -121.2394,
    "elevation_ft": 7270,
    "nwac_zone_slug": "cascade-west-central",
    "nearest_snotel": "515:WA:SNTL",
    "ski_mountaineering": {
      "viable": false,
      "quality": "not viable",
      "notes": "Technical rock peak with heavily bushed approach; not a ski objective"
    }
  },
  {
    "name": "Mount Formidable",
    "lat": 48.3322,
    "lon": -121.0417,
    "elevation_ft": 8325,
    "nwac_zone_slug": "cascade-west-central",
    "nearest_snotel": "817:WA:SNTL",
    "bulger_rank": 96,
    "best_seasons": [
      "spring",
      "summer"
    ],
    "dog_friendly": false,
    "ski_mountaineering": {
      "viable": true,
      "quality": "fair",
      "notes": "Middle Cascade Glacier approach offers moderate skiing; remote — accessed from Cascade Pass or Downey Creek"
    }
  },
  {
    "name": "Snowfield Peak",
    "lat": 48.5853,
    "lon": -121.1233,
    "elevation_ft": 8347,
    "nwac_zone_slug": "cascade-west-central",
    "nearest_snotel": "817:WA:SNTL",
    "bulger_rank": 90,
    "ski_mountaineering": {
      "viable": true,
      "quality": "fair",
      "notes": "Colonial/Neve Glacier system provides ski access; approach via Colonial Creek when Diablo Dam road open"
    }
  },
  {
    "name": "Lincoln Peak",
    "lat": 48.7694,
    "lon": -121.7753,
    "elevation_ft": 9096,
    "nwac_zone_slug": "cascade-west-north-baker",
    "nearest_snotel": "909:WA:SNTL",
    "ski_mountaineering": {
      "viable": true,
      "quality": "good",
      "notes": "Roosevelt and Coleman glaciers give good skiing on the Baker massif; combine with Baker summit trips"
    }
  },
  {
    "name": "Sinister Peak",
    "lat": 48.3119,
    "lon": -121.0625,
    "elevation_ft": 8440,
    "nwac_zone_slug": "cascade-west-central",
    "nearest_snotel": "817:WA:SNTL",
    "bulger_rank": 68,
    "best_seasons": [
      "summer"
    ],
    "dog_friendly": false,
    "ski_mountaineering": {
      "viable": true,
      "quality": "fair",
      "notes": "Dana Glacier approach has moderate ski terrain; very remote, usually combined with Dome Peak trips"
    }
  },
  {
    "name": "Primus Peak",
    "lat": 48.58188,
    "lon": -121.09189,
    "elevation_ft": 8508,
    "nwac_zone_slug": "cascade-east-central",
    "nearest_snotel": "817:WA:SNTL",
    "bulger_rank": 55,
    "best_seasons": [
      "spring",
      "summer"
    ],
    "dog_friendly": false,
    "ski_mountaineering": {
      "viable": true,
      "quality": "fair",
      "notes": "Glaciated north side has some ski potential; remote access via Entiat River or Phelps Creek"
    },
    "larch_scenery": {
      "quality": "good",
      "notes": "Entiat River drainage; scattered larch at treeline elevations"
    }
  },
  {
    "name": "Argonaut Peak",
    "lat": 47.5072,
    "lon": -120.9333,
    "elevation_ft": 8453,
    "nwac_zone_slug": "cascade-east-central",
    "nearest_snotel": "791:WA:SNTL",
    "bulger_rank": 66,
    "ski_mountaineering": {
      "viable": true,
      "quality": "fair",
      "notes": "South-face couloirs hold snow in spring; steep and committing, approach via Mountaineer Creek"
    }
  },
  {
    "name": "Sherpa Peak",
    "lat": 47.4822,
    "lon": -120.8881,
    "elevation_ft": 8605,
    "nwac_zone_slug": "cascade-east-central",
    "nearest_snotel": "791:WA:SNTL",
    "bulger_rank": 41,
    "best_seasons": [
      "summer",
      "fall"
    ],
    "dog_friendly": false,
    "ski_mountaineering": {
      "viable": true,
      "quality": "fair",
      "notes": "Sherpa Glacier offers moderate ski terrain; combine with Stuart Range traverses"
    },
    "larch_scenery": {
      "quality": "good",
      "notes": "Enchantments / Stuart Range; larch visible from Sherpa Glacier approach in fall"
    }
  },
  {
    "name": "Star Peak",
    "lat": 48.2761,
    "lon": -120.7944,
    "elevation_ft": 8520,
    "nwac_zone_slug": "cascade-east-central",
    "nearest_snotel": "606:WA:SNTL",
    "bulger_rank": 34,
    "ski_mountaineering": {
      "viable": true,
      "quality": "fair",
      "notes": "North-side glacier/snow slopes hold snow; remote, accessed via Entiat River"
    },
    "larch_scenery": {
      "quality": "good",
      "notes": "Entiat drainage approach has larch at higher elevations"
    }
  },
  {
    "name": "Enchantment Peak",
    "lat": 47.4947,
    "lon": -120.8117,
    "elevation_ft": 8520,
    "nwac_zone_slug": "cascade-east-central",
    "nearest_snotel": "791:WA:SNTL",
    "bulger_rank": 51,
    "ski_mountaineering": {
      "viable": false,
      "quality": "not viable",
      "notes": "Primarily a rock scramble in the Enchantments; no sustained ski-worthy slopes on the peak itself"
    },
    "larch_scenery": {
      "quality": "iconic",
      "notes": "Upper Enchantments — world-famous golden larch groves in Oct, one of the best larch displays in WA"
    }
  },
  {
    "name": "McClellan Peak",
    "lat": 47.5,
    "lon": -120.8044,
    "elevation_ft": 8364,
    "nwac_zone_slug": "cascade-east-central",
    "nearest_snotel": "791:WA:SNTL",
    "bulger_rank": 87,
    "ski_mountaineering": {
      "viable": false,
      "quality": "not viable",
      "notes": "Rocky scramble peak in the Enchantments; no significant skiable terrain"
    },
    "larch_scenery": {
      "quality": "iconic",
      "notes": "Upper Enchantments larch basins; peak-larch views from all angles in early-mid Oct"
    }
  },
  {
    "name": "Luahna Peak",
    "lat": 48.1467,
    "lon": -120.6517,
    "elevation_ft": 8441,
    "nwac_zone_slug": "cascade-east-central",
    "nearest_snotel": "606:WA:SNTL",
    "bulger_rank": 77,
    "best_seasons": [
      "spring",
      "summer"
    ],
    "dog_friendly": false,
    "ski_mountaineering": {
      "viable": true,
      "quality": "classic",
      "notes": "Classic ski tour line; north aspect holds quality snow, remote approach via Phelps Creek, often combined with 7FJ/Maude"
    },
    "larch_scenery": {
      "quality": "good",
      "notes": "Phelps Creek approach passes through larch; often combined with 7FJ/Maude larch trips"
    }
  },
  {
    "name": "Fortress Mountain",
    "lat": 48.0489,
    "lon": -120.7289,
    "elevation_ft": 8674,
    "nwac_zone_slug": "cascade-east-central",
    "nearest_snotel": "606:WA:SNTL",
    "bulger_rank": 30,
    "ski_mountaineering": {
      "viable": true,
      "quality": "fair",
      "notes": "Glacier cirque between Fortress and Chiwawa has moderate terrain; Phelps Creek approach"
    },
    "larch_scenery": {
      "quality": "excellent",
      "notes": "Spider Meadow / Phelps Creek approach through dense larch groves; golden valley views"
    }
  },
  {
    "name": "Chiwawa Mountain",
    "lat": 48.0606,
    "lon": -120.7653,
    "elevation_ft": 8459,
    "nwac_zone_slug": "cascade-east-central",
    "nearest_snotel": "606:WA:SNTL",
    "bulger_rank": 65,
    "ski_mountaineering": {
      "viable": true,
      "quality": "fair",
      "notes": "Lyman Glacier area has moderate skiing; long approach via Phelps Creek or Chiwawa River"
    },
    "larch_scenery": {
      "quality": "excellent",
      "notes": "Larch Lakes and Spider Meadow approaches pass through extensive larch groves"
    }
  },
  {
    "name": "Dumbell Mountain",
    "lat": 48.0422,
    "lon": -120.6753,
    "elevation_ft": 8421,
    "nwac_zone_slug": "cascade-east-central",
    "nearest_snotel": "606:WA:SNTL",
    "bulger_rank": 73,
    "ski_mountaineering": {
      "viable": true,
      "quality": "fair",
      "notes": "Snow slopes on north and east aspects; typically combined with other Entiat peaks"
    },
    "larch_scenery": {
      "quality": "good",
      "notes": "Entiat River / Phelps Creek approaches pass through larch groves at treeline"
    }
  },
  {
    "name": "Mount Lago",
    "lat": 48.6736,
    "lon": -120.4203,
    "elevation_ft": 8745,
    "nwac_zone_slug": "cascade-east-north",
    "nearest_snotel": "515:WA:SNTL",
    "bulger_rank": 31,
    "ski_mountaineering": {
      "viable": false,
      "quality": "not viable",
      "notes": "Dry east-side scramble; mostly talus, snow melts early on this Pasayten peak"
    }
  },
  {
    "name": "Oval Peak",
    "lat": 48.4056,
    "lon": -120.5444,
    "elevation_ft": 8795,
    "nwac_zone_slug": "cascade-east-central",
    "nearest_snotel": "515:WA:SNTL",
    "bulger_rank": 28,
    "ski_mountaineering": {
      "viable": false,
      "quality": "not viable",
      "notes": "East-side scramble; mostly heather, talus, and dry ridge walking"
    }
  },
  {
    "name": "Cardinal Peak",
    "lat": 48.2889,
    "lon": -120.575,
    "elevation_ft": 8590,
    "nwac_zone_slug": "cascade-east-central",
    "nearest_snotel": "606:WA:SNTL",
    "bulger_rank": 47,
    "best_seasons": [
      "summer",
      "fall"
    ],
    "dog_friendly": false,
    "ski_mountaineering": {
      "viable": true,
      "quality": "fair",
      "notes": "North-face couloirs hold snow into early summer; east-side approach from Entiat River valley"
    },
    "larch_scenery": {
      "quality": "good",
      "notes": "Lake Chelan-Sawtooth area has scattered larch; fall color on approach from Entiat side"
    }
  },
  {
    "name": "Klawatti Peak",
    "lat": 48.5489,
    "lon": -121.0958,
    "elevation_ft": 8485,
    "nwac_zone_slug": "cascade-west-central",
    "nearest_snotel": "817:WA:SNTL",
    "bulger_rank": 59,
    "ski_mountaineering": {
      "viable": true,
      "quality": "good",
      "notes": "Klawatti Glacier is a well-known ski descent; pair with Austera for a glacier traverse"
    }
  },
  {
    "name": "Reynolds Peak",
    "lat": 48.4417,
    "lon": -120.5417,
    "elevation_ft": 8512,
    "nwac_zone_slug": "cascade-east-central",
    "nearest_snotel": "515:WA:SNTL",
    "bulger_rank": 53,
    "ski_mountaineering": {
      "viable": false,
      "quality": "not viable",
      "notes": "East-side scramble peak; mostly dry talus and heather, not a ski objective"
    }
  },
  {
    "name": "Devore Peak",
    "lat": 48.0756,
    "lon": -120.6639,
    "elevation_ft": 8360,
    "nwac_zone_slug": "cascade-east-central",
    "nearest_snotel": "606:WA:SNTL",
    "bulger_rank": 88,
    "best_seasons": [
      "summer"
    ],
    "dog_friendly": false,
    "ski_mountaineering": {
      "viable": true,
      "quality": "fair",
      "notes": "Snow slopes on north aspects; typically combined with other Entiat/Chiwawa area peaks"
    },
    "larch_scenery": {
      "quality": "good",
      "notes": "Entiat River drainage has larch at treeline; combined with other Entiat peaks in fall"
    }
  },
  {
    "name": "Martin Peak",
    "lat": 48.1194,
    "lon": -120.7961,
    "elevation_ft": 8511,
    "nwac_zone_slug": "cascade-east-central",
    "nearest_snotel": "606:WA:SNTL",
    "bulger_rank": 54,
    "best_seasons": [
      "summer"
    ],
    "dog_friendly": false,
    "ski_mountaineering": {
      "viable": true,
      "quality": "fair",
      "notes": "North-side snow holds into summer; approach via Phelps Creek or Chiwawa River"
    },
    "larch_scenery": {
      "quality": "good",
      "notes": "Phelps Creek / Chiwawa River approach passes through larch zones at higher elevations"
    }
  },
  {
    "name": "Emerald Peak",
    "lat": 48.14,
    "lon": -120.8158,
    "elevation_ft": 8422,
    "nwac_zone_slug": "cascade-east-central",
    "nearest_snotel": "606:WA:SNTL",
    "bulger_rank": 72,
    "best_seasons": [
      "summer",
      "fall"
    ],
    "ski_mountaineering": {
      "viable": true,
      "quality": "fair",
      "notes": "Glacier between Emerald and 7FJ has moderate terrain; usually combined with Maude/7FJ trips"
    },
    "larch_scenery": {
      "quality": "good",
      "notes": "Phelps Creek approach has larch; glacier cirque between Emerald and 7FJ with scattered larch below"
    }
  },
  {
    "name": "Spectacle Buttes",
    "lat": 48.1019,
    "lon": -120.7033,
    "elevation_ft": 8392,
    "nwac_zone_slug": "cascade-east-central",
    "nearest_snotel": "606:WA:SNTL",
    "bulger_rank": 81,
    "ski_mountaineering": {
      "viable": true,
      "quality": "fair",
      "notes": "North-side snow slopes; remote, accessed via Phelps Creek or Entiat River"
    },
    "larch_scenery": {
      "quality": "good",
      "notes": "Entiat / Phelps Creek approach with larch at higher elevations"
    }
  },
  {
    "name": "Mount Lago",
    "lat": 48.6736,
    "lon": -120.4203,
    "elevation_ft": 8745,
    "nwac_zone_slug": "cascade-east-north",
    "nearest_snotel": "515:WA:SNTL",
    "bulger_rank": 31,
    "ski_mountaineering": {
      "viable": false,
      "quality": "not viable",
      "notes": "Dry east-side scramble; mostly talus, snow melts early on this Pasayten peak"
    }
  },
  {
    "name": "Pinnacle Peak",
    "lat": 46.7669,
    "lon": -121.7219,
    "elevation_ft": 6562,
    "nwac_zone_slug": "cascade-west-south",
    "nearest_snotel": "679:WA:SNTL",
    "ski_mountaineering": {
      "viable": false,
      "quality": "not viable",
      "notes": "Short rock scramble near Rainier's Tatoosh Range; too small and rocky for ski mountaineering"
    }
  },
  {
    "name": "Mount St. Helens",
    "lat": 46.1912,
    "lon": -122.1944,
    "elevation_ft": 8365,
    "nwac_zone_slug": "cascade-west-south",
    "nearest_snotel": "804:WA:SNTL",
    "bulger_rank": 92,
    "ski_mountaineering": {
      "viable": true,
      "quality": "classic",
      "notes": "Monitor Ridge and Worm Flows are PNW spring ski classics; permits required May 15 - Oct 31, smooth volcanic terrain"
    }
  },
  {
    "name": "Mount Hood",
    "lat": 45.3735,
    "lon": -121.6959,
    "elevation_ft": 11249,
    "nwac_zone_slug": "mt-hood",
    "nearest_snotel": "651:OR:SNTL",
    "ski_mountaineering": {
      "viable": true,
      "quality": "classic",
      "notes": "South side, Sandy Glacier Headwall, Cooper Spur — year-round skiing potential, PNW classic"
    }
  },
  {
    "name": "Sloan Peak",
    "lat": 48.0414,
    "lon": -121.3347,
    "elevation_ft": 7835,
    "nwac_zone_slug": "cascade-west-central",
    "nearest_snotel": "515:WA:SNTL",
    "ski_mountaineering": {
      "viable": true,
      "quality": "fair",
      "notes": "Sloan Glacier offers moderate skiing on the west side; Corkscrew route approach, Mtn Loop Hwy access limited in spring"
    }
  },
  {
    "name": "Whitehorse Mountain",
    "lat": 48.1617,
    "lon": -121.6072,
    "elevation_ft": 6852,
    "nwac_zone_slug": "cascade-west-central",
    "nearest_snotel": "515:WA:SNTL",
    "ski_mountaineering": {
      "viable": false,
      "quality": "not viable",
      "notes": "Steep, brushy approach with technical rock; not a practical ski objective"
    }
  },
  {
    "name": "Three Fingers",
    "lat": 48.1522,
    "lon": -121.4964,
    "elevation_ft": 6854,
    "nwac_zone_slug": "cascade-west-central",
    "nearest_snotel": "515:WA:SNTL",
    "ski_mountaineering": {
      "viable": false,
      "quality": "not viable",
      "notes": "Rocky summit with lookout; long trail approach, no sustained ski terrain"
    }
  },
  {
    "name": "Mount Shasta",
    "lat": 41.4092,
    "lon": -122.1949,
    "elevation_ft": 14179,
    "nwac_zone_slug": null,
    "nearest_snotel": "806:CA:SNTL",
    "ski_mountaineering": {
      "viable": true,
      "quality": "classic",
      "notes": "Avalanche Gulch, Hotlum-Bolam, Casaval Ridge — massive volcanic ski descents, 7,000+ ft runs"
    }
  },
  {
    "name": "Mount Index",
    "lat": 47.8164,
    "lon": -121.4886,
    "elevation_ft": 5979,
    "nwac_zone_slug": "cascade-west-central",
    "nearest_snotel": "791:WA:SNTL",
    "ski_mountaineering": {
      "viable": false,
      "quality": "not viable",
      "notes": "Technical rock climbing peak; brushy approach, no skiable terrain"
    }
  },
  {
    "name": "Johannesburg Mountain",
    "lat": 48.4842,
    "lon": -121.0739,
    "elevation_ft": 8200,
    "nwac_zone_slug": "cascade-west-central",
    "nearest_snotel": "817:WA:SNTL",
    "ski_mountaineering": {
      "viable": true,
      "quality": "fair",
      "notes": "Steep couloirs on south face hold snow; approached from Cascade Pass area, committing terrain"
    }
  },
  {
    "name": "Austera Peak",
    "lat": 48.5561,
    "lon": -121.0992,
    "elevation_ft": 8334,
    "nwac_zone_slug": "cascade-west-central",
    "nearest_snotel": "817:WA:SNTL",
    "bulger_rank": 91,
    "best_seasons": [
      "spring",
      "summer"
    ],
    "dog_friendly": false,
    "ski_mountaineering": {
      "viable": true,
      "quality": "fair",
      "notes": "McAllister Glacier approach; often paired with Klawatti for a glacier ski traverse"
    }
  },
  {
    "name": "Bear Mountain",
    "lat": 48.7506,
    "lon": -121.1269,
    "elevation_ft": 7931,
    "nwac_zone_slug": "cascade-west-north-baker",
    "nearest_snotel": "909:WA:SNTL",
    "ski_mountaineering": {
      "viable": false,
      "quality": "not viable",
      "notes": "Remote bushwhack peak; no significant ski terrain"
    }
  },
  {
    "name": "Hozomeen Mountain",
    "lat": 48.9592,
    "lon": -121.035,
    "elevation_ft": 8066,
    "nwac_zone_slug": "cascade-west-north-baker",
    "nearest_snotel": "909:WA:SNTL",
    "ski_mountaineering": {
      "viable": false,
      "quality": "not viable",
      "notes": "Technical rock peak; remote, accessed via Hozomeen Lake, not a ski objective"
    }
  },
  {
    "name": "Colonial Peak",
    "lat": 48.6117,
    "lon": -121.1875,
    "elevation_ft": 7771,
    "nwac_zone_slug": "cascade-west-central",
    "nearest_snotel": "817:WA:SNTL",
    "ski_mountaineering": {
      "viable": true,
      "quality": "good",
      "notes": "Colonial Glacier is a pleasant ski run; accessible from Colonial Creek campground when road open"
    }
  },
  {
    "name": "Goat Mountain",
    "lat": 48.3756,
    "lon": -121.0647,
    "elevation_ft": 8348,
    "nwac_zone_slug": "cascade-west-central",
    "nearest_snotel": "817:WA:SNTL",
    "ski_mountaineering": {
      "viable": true,
      "quality": "fair",
      "notes": "North side glacial terrain; remote approach, often climbed as part of Ptarmigan Traverse"
    }
  },
  {
    "name": "Custer Peak",
    "lat": 48.9481,
    "lon": -121.2531,
    "elevation_ft": 8630,
    "nwac_zone_slug": "cascade-west-north-baker",
    "nearest_snotel": "909:WA:SNTL",
    "bulger_rank": 39,
    "best_seasons": [
      "summer"
    ],
    "dog_friendly": false,
    "ski_mountaineering": {
      "viable": true,
      "quality": "fair",
      "notes": "North-side glaciers hold snow; extremely remote, multi-day trip — often combined with Spickard/Redoubt"
    }
  },
  {
    "name": "Rahm Peak",
    "lat": 48.9392,
    "lon": -121.2403,
    "elevation_ft": 8504,
    "nwac_zone_slug": "cascade-west-north-baker",
    "nearest_snotel": "909:WA:SNTL",
    "bulger_rank": 60,
    "best_seasons": [
      "summer"
    ],
    "dog_friendly": false,
    "ski_mountaineering": {
      "viable": true,
      "quality": "fair",
      "notes": "Adjacent to Custer; glacial terrain on approach, same remote multi-day access"
    }
  },
  {
    "name": "Tenpeak Mountain",
    "lat": 48.1942,
    "lon": -121.0917,
    "elevation_ft": 7430,
    "nwac_zone_slug": "cascade-west-central",
    "nearest_snotel": "515:WA:SNTL",
    "ski_mountaineering": {
      "viable": true,
      "quality": "fair",
      "notes": "Buck Creek Glacier area offers moderate terrain; long approach via Buck Creek trail"
    }
  },
  {
    "name": "Kimtah Peak",
    "lat": 48.4217,
    "lon": -120.9361,
    "elevation_ft": 8600,
    "nwac_zone_slug": "cascade-east-central",
    "nearest_snotel": "817:WA:SNTL",
    "bulger_rank": 44,
    "best_seasons": [
      "spring",
      "summer"
    ],
    "dog_friendly": false,
    "ski_mountaineering": {
      "viable": true,
      "quality": "fair",
      "notes": "Kimtah and surrounding glaciers offer moderate terrain; accessed via SR 20 corridor"
    }
  },
  {
    "name": "Mixup Peak",
    "lat": 48.4722,
    "lon": -121.0361,
    "elevation_ft": 7440,
    "nwac_zone_slug": "cascade-west-central",
    "nearest_snotel": "515:WA:SNTL",
    "ski_mountaineering": {
      "viable": false,
      "quality": "not viable",
      "notes": "Technical rock climbing peak; no practical ski terrain on the peak itself"
    }
  },
  {
    "name": "Whittier Peak",
    "lat": 48.5656,
    "lon": -121.0836,
    "elevation_ft": 7598,
    "nwac_zone_slug": "cascade-west-central",
    "nearest_snotel": "515:WA:SNTL",
    "ski_mountaineering": {
      "viable": true,
      "quality": "fair",
      "notes": "North-side neve and glacier terrain; accessed from Neve Glacier/Colonial area"
    }
  },
  {
    "name": "Castle Peak",
    "lat": 48.5567,
    "lon": -120.405,
    "elevation_ft": 8306,
    "nwac_zone_slug": "cascade-east-north",
    "nearest_snotel": "515:WA:SNTL",
    "ski_mountaineering": {
      "viable": false,
      "quality": "not viable",
      "notes": "Dry east-side peak; scramble terrain, snow melts early"
    }
  },
  {
    "name": "Raven Ridge",
    "lat": 48.9592,
    "lon": -121.3592,
    "elevation_ft": 7990,
    "nwac_zone_slug": "cascade-west-north-baker",
    "nearest_snotel": "909:WA:SNTL",
    "bulger_rank": 49,
    "best_seasons": [
      "summer",
      "fall"
    ],
    "dog_friendly": false,
    "ski_mountaineering": {
      "viable": false,
      "quality": "not viable",
      "notes": "Remote ridge traverse; technical terrain, not suited for skiing"
    }
  },
  {
    "name": "South Gardner Mountain",
    "lat": 48.4389,
    "lon": -120.4444,
    "elevation_ft": 8368,
    "nwac_zone_slug": "cascade-east-central",
    "nearest_snotel": "515:WA:SNTL",
    "ski_mountaineering": {
      "viable": false,
      "quality": "not viable",
      "notes": "Dry east-side scramble; mostly talus and heather, similar to N Gardner"
    }
  },
  {
    "name": "Stiletto Peak",
    "lat": 48.4903,
    "lon": -120.5861,
    "elevation_ft": 7660,
    "nwac_zone_slug": "cascade-east-central",
    "nearest_snotel": "515:WA:SNTL",
    "ski_mountaineering": {
      "viable": false,
      "quality": "not viable",
      "notes": "Technical rock spire; no skiable terrain"
    }
  },
  {
    "name": "Ptarmigan Peak",
    "lat": 48.2792,
    "lon": -121.1333,
    "elevation_ft": 7452,
    "nwac_zone_slug": "cascade-west-central",
    "nearest_snotel": "515:WA:SNTL",
    "bulger_rank": 40,
    "ski_mountaineering": {
      "viable": true,
      "quality": "fair",
      "notes": "Glaciated approach on Ptarmigan Traverse; south-side snowfields offer moderate skiing"
    }
  },
  {
    "name": "Crater Mountain",
    "lat": 48.6594,
    "lon": -121.0756,
    "elevation_ft": 8128,
    "nwac_zone_slug": "cascade-west-central",
    "nearest_snotel": "515:WA:SNTL",
    "ski_mountaineering": {
      "viable": true,
      "quality": "fair",
      "notes": "North-side Jerry Glacier has moderate terrain; remote access requires SR 20"
    }
  },
  {
    "name": "Azurite Peak",
    "lat": 48.5917,
    "lon": -120.5592,
    "elevation_ft": 8400,
    "nwac_zone_slug": "cascade-east-north",
    "nearest_snotel": "515:WA:SNTL",
    "bulger_rank": 77,
    "best_seasons": [
      "summer",
      "fall"
    ],
    "ski_mountaineering": {
      "viable": true,
      "quality": "fair",
      "notes": "North-face couloirs hold snow; accessed from Harts Pass area when road opens mid-summer"
    },
    "larch_scenery": {
      "quality": "good",
      "notes": "Harts Pass area has scattered larch; accessible in fall when road is open"
    }
  },
  {
    "name": "Horseshoe Peak",
    "lat": 48.0578,
    "lon": -120.8136,
    "elevation_ft": 8480,
    "nwac_zone_slug": "cascade-east-central",
    "nearest_snotel": "606:WA:SNTL",
    "bulger_rank": 60,
    "best_seasons": [
      "spring",
      "summer"
    ],
    "dog_friendly": false,
    "ski_mountaineering": {
      "viable": true,
      "quality": "fair",
      "notes": "Horseshoe Glacier area has moderate terrain; approach via Phelps Creek or Chiwawa River"
    },
    "larch_scenery": {
      "quality": "good",
      "notes": "Phelps Creek / Chiwawa approach with larch; Horseshoe basin has scattered alpine larch"
    }
  },
  {
    "name": "Mount Despair",
    "lat": 48.6556,
    "lon": -121.2286,
    "elevation_ft": 7292,
    "nwac_zone_slug": "cascade-west-central",
    "nearest_snotel": "515:WA:SNTL",
    "ski_mountaineering": {
      "viable": false,
      "quality": "not viable",
      "notes": "Technical rock peak with difficult approach; not a ski objective"
    }
  },
  {
    "name": "Mox Peaks - Twin Spires",
    "lat": 48.8253,
    "lon": -121.1994,
    "elevation_ft": 8504,
    "nwac_zone_slug": "cascade-west-north-baker",
    "nearest_snotel": "909:WA:SNTL",
    "bulger_rank": 56,
    "best_seasons": [
      "summer"
    ],
    "dog_friendly": false,
    "ski_mountaineering": {
      "viable": false,
      "quality": "not viable",
      "notes": "Remote technical rock spires; extremely committing approach, not a ski objective"
    }
  },
  {
    "name": "Mount Terror",
    "lat": 48.5275,
    "lon": -121.1119,
    "elevation_ft": 8151,
    "nwac_zone_slug": "cascade-west-central",
    "nearest_snotel": "515:WA:SNTL",
    "ski_mountaineering": {
      "viable": false,
      "quality": "not viable",
      "notes": "Remote Picket Range; technical rock climbing required, not suited for skiing"
    }
  },
  {
    "name": "Katsuk Peak",
    "lat": 48.4764,
    "lon": -120.9319,
    "elevation_ft": 8680,
    "nwac_zone_slug": "cascade-east-central",
    "nearest_snotel": "817:WA:SNTL",
    "bulger_rank": 36,
    "best_seasons": [
      "spring",
      "summer"
    ],
    "dog_friendly": false,
    "ski_mountaineering": {
      "viable": true,
      "quality": "fair",
      "notes": "Katsuk Glacier has moderate terrain; remote access via Fisher Creek when SR 20 is open"
    }
  },
  {
    "name": "Remmel Mountain",
    "lat": 48.8792,
    "lon": -120.1758,
    "elevation_ft": 8685,
    "nwac_zone_slug": "cascade-east-north",
    "nearest_snotel": "515:WA:SNTL",
    "bulger_rank": 35,
    "best_seasons": [
      "summer",
      "fall"
    ],
    "dog_friendly": false,
    "ski_mountaineering": {
      "viable": false,
      "quality": "not viable",
      "notes": "Dry Pasayten Wilderness peak; gentle heather slopes, snow melts very early"
    }
  },
  {
    "name": "Lake Mountain",
    "lat": 48.07,
    "lon": -120.6086,
    "elevation_ft": 8340,
    "nwac_zone_slug": "cascade-east-central",
    "nearest_snotel": "606:WA:SNTL",
    "bulger_rank": 84,
    "best_seasons": [
      "summer",
      "fall"
    ],
    "dog_friendly": true,
    "ski_mountaineering": {
      "viable": true,
      "quality": "fair",
      "notes": "North-facing snow slopes; approach via Entiat River, often combined with nearby Entiat peaks"
    },
    "larch_scenery": {
      "quality": "good",
      "notes": "Entiat River drainage; larch groves at treeline on approach"
    }
  },
  {
    "name": "Pinnacle Mountain",
    "lat": 48.4822,
    "lon": -120.6853,
    "elevation_ft": 8402,
    "nwac_zone_slug": "cascade-east-central",
    "nearest_snotel": "515:WA:SNTL",
    "bulger_rank": 77,
    "best_seasons": [
      "summer",
      "fall"
    ],
    "ski_mountaineering": {
      "viable": true,
      "quality": "fair",
      "notes": "North-side couloirs and snow slopes hold into summer; accessed via SR 20 corridor"
    },
    "larch_scenery": {
      "quality": "good",
      "notes": "SR 20 corridor; scattered larch in the area accessible when highway is open in fall"
    }
  },
  {
    "name": "Mount Carru",
    "lat": 48.3267,
    "lon": -120.8733,
    "elevation_ft": 8595,
    "nwac_zone_slug": "cascade-east-central",
    "nearest_snotel": "606:WA:SNTL",
    "bulger_rank": 45,
    "ski_mountaineering": {
      "viable": true,
      "quality": "fair",
      "notes": "North-side glacier terrain; remote, accessed via Entiat River"
    },
    "larch_scenery": {
      "quality": "good",
      "notes": "Entiat River approach has larch at upper elevations"
    }
  },
  {
    "name": "Painted Mountain",
    "lat": 48.1267,
    "lon": -120.5483,
    "elevation_ft": 7960,
    "nwac_zone_slug": "cascade-east-central",
    "nearest_snotel": "515:WA:SNTL",
    "ski_mountaineering": {
      "viable": false,
      "quality": "not viable",
      "notes": "Mostly dry ridge scramble; limited snowpack on this east-side peak"
    }
  },
  {
    "name": "Napeequa Peak",
    "lat": 48.0856,
    "lon": -120.8472,
    "elevation_ft": 8073,
    "nwac_zone_slug": "cascade-east-central",
    "nearest_snotel": "606:WA:SNTL",
    "ski_mountaineering": {
      "viable": true,
      "quality": "fair",
      "notes": "Napeequa basin approach has moderate snow slopes; long approach via Napeequa River valley"
    },
    "larch_scenery": {
      "quality": "good",
      "notes": "Napeequa Valley has scattered larch at upper elevations; remote but rewarding fall scenery"
    }
  },
  {
    "name": "McGregor Mountain",
    "lat": 48.3825,
    "lon": -120.7219,
    "elevation_ft": 8122,
    "nwac_zone_slug": "cascade-east-central",
    "nearest_snotel": "606:WA:SNTL",
    "ski_mountaineering": {
      "viable": true,
      "quality": "fair",
      "notes": "Sandalee Glacier area has some skiing; long trail approach from Stehekin or High Bridge"
    }
  },
  {
    "name": "Mount Torment",
    "lat": 48.5056,
    "lon": -121.0806,
    "elevation_ft": 8120,
    "nwac_zone_slug": "cascade-west-central",
    "nearest_snotel": "817:WA:SNTL",
    "ski_mountaineering": {
      "viable": false,
      "quality": "not viable",
      "notes": "Technical rock climbing peak adjacent to Forbidden; not a ski objective"
    }
  },
  {
    "name": "Tupshin Peak",
    "lat": 48.3886,
    "lon": -120.8081,
    "elevation_ft": 8321,
    "nwac_zone_slug": "cascade-east-central",
    "nearest_snotel": "606:WA:SNTL",
    "bulger_rank": 99,
    "best_seasons": [
      "summer"
    ],
    "dog_friendly": false,
    "ski_mountaineering": {
      "viable": true,
      "quality": "fair",
      "notes": "North-side snow slopes and small glacier; remote approach via Company Creek or Lake Chelan"
    },
    "larch_scenery": {
      "quality": "good",
      "notes": "Company Creek / Lake Chelan approach has scattered larch at treeline"
    }
  },
  {
    "name": "Witches Tower",
    "lat": 47.4747,
    "lon": -120.8442,
    "elevation_ft": 8520,
    "nwac_zone_slug": "cascade-east-central",
    "nearest_snotel": "791:WA:SNTL",
    "ski_mountaineering": {
      "viable": false,
      "quality": "not viable",
      "notes": "Technical rock spire in the Stuart Range; no skiable terrain on the peak"
    }
  },
  {
    "name": "Booker Mountain",
    "lat": 48.4867,
    "lon": -121.0231,
    "elevation_ft": 8280,
    "nwac_zone_slug": "cascade-west-central",
    "nearest_snotel": "817:WA:SNTL",
    "ski_mountaineering": {
      "viable": true,
      "quality": "fair",
      "notes": "Glaciated approach near Boston Basin; moderate terrain, accessed from Cascade River Rd"
    }
  },
  {
    "name": "Gardner Mountain",
    "lat": 48.45,
    "lon": -120.4331,
    "elevation_ft": 8897,
    "nwac_zone_slug": "cascade-east-central",
    "nearest_snotel": "515:WA:SNTL",
    "bulger_rank": 22,
    "best_seasons": [
      "spring",
      "summer",
      "fall"
    ],
    "dog_friendly": true,
    "ski_mountaineering": {
      "viable": false,
      "quality": "not viable",
      "notes": "Dry east-side scramble; mostly talus and heather, snow melts early similar to N Gardner"
    }
  },
  {
    "name": "Boston Peak",
    "lat": 48.5147,
    "lon": -121.0478,
    "elevation_ft": 8894,
    "nwac_zone_slug": "cascade-west-central",
    "nearest_snotel": "817:WA:SNTL",
    "bulger_rank": 23,
    "best_seasons": [
      "spring",
      "summer"
    ],
    "dog_friendly": false,
    "ski_mountaineering": {
      "viable": true,
      "quality": "good",
      "notes": "Boston Glacier and NE couloir offer excellent skiing; accessed via Boston Basin from Cascade River Rd"
    }
  },
  {
    "name": "Robinson Mountain",
    "lat": 48.4647,
    "lon": -120.3508,
    "elevation_ft": 8726,
    "nwac_zone_slug": "cascade-east-central",
    "nearest_snotel": "515:WA:SNTL",
    "bulger_rank": 32,
    "ski_mountaineering": {
      "viable": false,
      "quality": "not viable",
      "notes": "Gentle east-side scramble; mostly heather and talus, snow melts early"
    }
  },
  {
    "name": "Cathedral Peak",
    "lat": 48.5703,
    "lon": -120.2778,
    "elevation_ft": 8601,
    "nwac_zone_slug": "cascade-east-north",
    "nearest_snotel": "515:WA:SNTL",
    "bulger_rank": 43,
    "best_seasons": [
      "summer",
      "fall"
    ],
    "dog_friendly": false,
    "ski_mountaineering": {
      "viable": false,
      "quality": "not viable",
      "notes": "Dry Pasayten Wilderness scramble; mostly talus and heather, minimal snow retention"
    }
  },
  {
    "name": "Monument Peak",
    "lat": 48.1083,
    "lon": -120.475,
    "elevation_ft": 8592,
    "nwac_zone_slug": "cascade-east-central",
    "nearest_snotel": "515:WA:SNTL",
    "bulger_rank": 46,
    "best_seasons": [
      "summer",
      "fall"
    ],
    "dog_friendly": true,
    "ski_mountaineering": {
      "viable": false,
      "quality": "not viable",
      "notes": "Dry east-side scramble peak; exposed terrain, snow melts early"
    }
  },
  {
    "name": "Mount Osceola",
    "lat": 48.3186,
    "lon": -120.4794,
    "elevation_ft": 8587,
    "nwac_zone_slug": "cascade-east-central",
    "nearest_snotel": "515:WA:SNTL",
    "bulger_rank": 48,
    "ski_mountaineering": {
      "viable": false,
      "quality": "not viable",
      "notes": "East-side scramble; talus and heather terrain, snow melts early"
    }
  },
  {
    "name": "Buck Mountain",
    "lat": 48.3028,
    "lon": -120.5278,
    "elevation_ft": 8528,
    "nwac_zone_slug": "cascade-east-central",
    "nearest_snotel": "515:WA:SNTL",
    "bulger_rank": 50,
    "ski_mountaineering": {
      "viable": false,
      "quality": "not viable",
      "notes": "East-side scramble; mostly dry ridge walking and talus"
    }
  },
  {
    "name": "Storm King Mountain",
    "lat": 48.6792,
    "lon": -120.4028,
    "elevation_ft": 8520,
    "nwac_zone_slug": "cascade-east-north",
    "nearest_snotel": "515:WA:SNTL",
    "bulger_rank": 51,
    "best_seasons": [
      "summer"
    ],
    "dog_friendly": false,
    "ski_mountaineering": {
      "viable": false,
      "quality": "not viable",
      "notes": "East-side Pasayten scramble; dry terrain, minimal snow"
    }
  },
  {
    "name": "Dark Peak",
    "lat": 48.2611,
    "lon": -120.9139,
    "elevation_ft": 8504,
    "nwac_zone_slug": "cascade-east-central",
    "nearest_snotel": "606:WA:SNTL",
    "bulger_rank": 56,
    "best_seasons": [
      "summer"
    ],
    "dog_friendly": false,
    "ski_mountaineering": {
      "viable": true,
      "quality": "fair",
      "notes": "North-side glacier holds snow; remote, accessed via Entiat River drainage"
    },
    "larch_scenery": {
      "quality": "good",
      "notes": "Entiat drainage with larch at treeline; remote fall color"
    }
  },
  {
    "name": "Cashmere Mountain",
    "lat": 47.5017,
    "lon": -120.7306,
    "elevation_ft": 8501,
    "nwac_zone_slug": "cascade-east-central",
    "nearest_snotel": "791:WA:SNTL",
    "bulger_rank": 58,
    "ski_mountaineering": {
      "viable": false,
      "quality": "not viable",
      "notes": "Rocky scramble in the Enchantments/Stuart Range area; no sustained ski terrain"
    },
    "larch_scenery": {
      "quality": "good",
      "notes": "Enchantments / Icicle Creek area; some larch visible at higher elevations"
    }
  },
  {
    "name": "Mox Peak NW",
    "lat": 48.8292,
    "lon": -121.2083,
    "elevation_ft": 8480,
    "nwac_zone_slug": "cascade-west-north-baker",
    "nearest_snotel": "909:WA:SNTL",
    "bulger_rank": 75,
    "best_seasons": [
      "summer"
    ],
    "dog_friendly": false,
    "ski_mountaineering": {
      "viable": false,
      "quality": "not viable",
      "notes": "Remote technical rock spire; extremely committing approach, not a ski objective"
    }
  },
  {
    "name": "Big Craggy Peak",
    "lat": 48.6458,
    "lon": -120.3611,
    "elevation_ft": 8470,
    "nwac_zone_slug": "cascade-east-north",
    "nearest_snotel": "515:WA:SNTL",
    "bulger_rank": 62,
    "ski_mountaineering": {
      "viable": false,
      "quality": "not viable",
      "notes": "East-side Pasayten scramble; mostly talus and dry slopes"
    }
  },
  {
    "name": "Lost Peak",
    "lat": 48.0292,
    "lon": -120.7667,
    "elevation_ft": 8464,
    "nwac_zone_slug": "cascade-east-central",
    "nearest_snotel": "606:WA:SNTL",
    "bulger_rank": 63,
    "ski_mountaineering": {
      "viable": true,
      "quality": "fair",
      "notes": "North-side snow slopes hold into summer; remote Entiat/Chiwawa area, often combined with nearby peaks"
    },
    "larch_scenery": {
      "quality": "good",
      "notes": "Entiat / Chiwawa area has larch at higher elevations on approach"
    }
  },
  {
    "name": "Hoodoo Peak",
    "lat": 48.2167,
    "lon": -120.8861,
    "elevation_ft": 8464,
    "nwac_zone_slug": "cascade-east-central",
    "nearest_snotel": "606:WA:SNTL",
    "bulger_rank": 63,
    "best_seasons": [
      "summer",
      "fall"
    ],
    "dog_friendly": true,
    "ski_mountaineering": {
      "viable": true,
      "quality": "fair",
      "notes": "North-side glacier terrain; remote, accessed via Entiat River drainage"
    },
    "larch_scenery": {
      "quality": "iconic",
      "notes": "Larch Lakes basin is one of WA's premier larch destinations; golden alpine larch surround the approach"
    }
  },
  {
    "name": "Tower Mountain",
    "lat": 48.6417,
    "lon": -120.4333,
    "elevation_ft": 8444,
    "nwac_zone_slug": "cascade-east-north",
    "nearest_snotel": "515:WA:SNTL",
    "bulger_rank": 67,
    "best_seasons": [
      "summer",
      "fall"
    ],
    "dog_friendly": false,
    "ski_mountaineering": {
      "viable": false,
      "quality": "not viable",
      "notes": "Dry east-side Pasayten peak; scramble terrain, minimal snow retention"
    }
  },
  {
    "name": "Mount Bigelow",
    "lat": 48.0944,
    "lon": -120.7889,
    "elevation_ft": 8440,
    "nwac_zone_slug": "cascade-east-central",
    "nearest_snotel": "606:WA:SNTL",
    "bulger_rank": 68,
    "best_seasons": [
      "summer",
      "fall"
    ],
    "dog_friendly": true,
    "ski_mountaineering": {
      "viable": true,
      "quality": "fair",
      "notes": "North-side snow slopes; remote Chiwawa/Entiat area, combined with neighboring peaks"
    },
    "larch_scenery": {
      "quality": "good",
      "notes": "Chiwawa / Phelps Creek drainage larch on approach; treeline larch groves"
    }
  },
  {
    "name": "Little Annapurna",
    "lat": 47.4764,
    "lon": -120.8042,
    "elevation_ft": 8440,
    "nwac_zone_slug": "cascade-east-central",
    "nearest_snotel": "791:WA:SNTL",
    "bulger_rank": 68,
    "ski_mountaineering": {
      "viable": false,
      "quality": "not viable",
      "notes": "Rocky scramble in the Enchantments; no sustained skiable terrain on the peak"
    },
    "larch_scenery": {
      "quality": "iconic",
      "notes": "Enchantments basin larches surround the approach; stunning golden alpine scenery in Oct"
    }
  },
  {
    "name": "Dorado Needle",
    "lat": 48.5642,
    "lon": -121.1111,
    "elevation_ft": 8440,
    "nwac_zone_slug": "cascade-west-central",
    "nearest_snotel": "606:WA:SNTL",
    "bulger_rank": 68,
    "ski_mountaineering": {
      "viable": false,
      "quality": "not viable",
      "notes": "Technical rock spire near Eldorado; glaciated approach but summit is rock climbing"
    }
  },
  {
    "name": "Greenwood Mountain",
    "lat": 47.4917,
    "lon": -120.9117,
    "elevation_ft": 8415,
    "nwac_zone_slug": "cascade-east-central",
    "nearest_snotel": "791:WA:SNTL",
    "bulger_rank": 74,
    "ski_mountaineering": {
      "viable": false,
      "quality": "not viable",
      "notes": "Rocky scramble peak near Stuart Range; no significant ski terrain"
    }
  },
  {
    "name": "Saska Peak",
    "lat": 48.0222,
    "lon": -120.7778,
    "elevation_ft": 8404,
    "nwac_zone_slug": "cascade-east-central",
    "nearest_snotel": "606:WA:SNTL",
    "bulger_rank": 76,
    "best_seasons": [
      "summer",
      "fall"
    ],
    "ski_mountaineering": {
      "viable": true,
      "quality": "fair",
      "notes": "North-side snow slopes; remote Chiwawa area, usually combined with neighboring Entiat peaks"
    },
    "larch_scenery": {
      "quality": "good",
      "notes": "Chiwawa drainage larch groves on approach; combines with Entiat peak trips in larch season"
    }
  },
  {
    "name": "Blackcap Mountain",
    "lat": 48.1972,
    "lon": -120.5833,
    "elevation_ft": 8397,
    "nwac_zone_slug": "cascade-east-central",
    "nearest_snotel": "515:WA:SNTL",
    "bulger_rank": 80,
    "best_seasons": [
      "summer",
      "fall"
    ],
    "dog_friendly": true,
    "ski_mountaineering": {
      "viable": false,
      "quality": "not viable",
      "notes": "East-side scramble; dry terrain, snow melts early"
    }
  },
  {
    "name": "Golden Horn",
    "lat": 48.6667,
    "lon": -120.5917,
    "elevation_ft": 8366,
    "nwac_zone_slug": "cascade-east-north",
    "nearest_snotel": "515:WA:SNTL",
    "bulger_rank": 85,
    "best_seasons": [
      "summer",
      "fall"
    ],
    "dog_friendly": false,
    "ski_mountaineering": {
      "viable": true,
      "quality": "fair",
      "notes": "North-face couloirs and snow slopes; accessed from SR 20 / Swamp Creek when road opens"
    },
    "larch_scenery": {
      "quality": "excellent",
      "notes": "Cutthroat Pass and Swamp Creek have stunning larch; one of the best SR 20 corridor larch hikes"
    }
  },
  {
    "name": "West Craggy Peak",
    "lat": 48.6264,
    "lon": -120.3722,
    "elevation_ft": 8366,
    "nwac_zone_slug": "cascade-east-north",
    "nearest_snotel": "515:WA:SNTL",
    "bulger_rank": 85,
    "ski_mountaineering": {
      "viable": false,
      "quality": "not viable",
      "notes": "East-side Pasayten scramble; mostly dry talus"
    }
  },
  {
    "name": "Amphitheater Mountain",
    "lat": 48.5792,
    "lon": -120.2194,
    "elevation_ft": 8358,
    "nwac_zone_slug": "cascade-east-north",
    "nearest_snotel": "515:WA:SNTL",
    "bulger_rank": 89,
    "best_seasons": [
      "summer",
      "fall"
    ],
    "ski_mountaineering": {
      "viable": false,
      "quality": "not viable",
      "notes": "Dry Pasayten Wilderness peak; gentle slopes, snow melts very early"
    }
  },
  {
    "name": "Windy Peak",
    "lat": 48.6028,
    "lon": -120.2833,
    "elevation_ft": 8334,
    "nwac_zone_slug": "cascade-east-north",
    "nearest_snotel": "515:WA:SNTL",
    "bulger_rank": 92,
    "best_seasons": [
      "summer",
      "fall"
    ],
    "dog_friendly": true,
    "ski_mountaineering": {
      "viable": false,
      "quality": "not viable",
      "notes": "Dry Pasayten scramble; gentle terrain, minimal snow"
    }
  },
  {
    "name": "Cosho Peak",
    "lat": 48.4972,
    "lon": -121.0083,
    "elevation_ft": 8332,
    "nwac_zone_slug": "cascade-west-central",
    "nearest_snotel": "817:WA:SNTL",
    "bulger_rank": 94,
    "best_seasons": [
      "spring",
      "summer"
    ],
    "dog_friendly": false,
    "ski_mountaineering": {
      "viable": true,
      "quality": "fair",
      "notes": "Glaciated north side; remote approach near Forbidden/Boston Basin area"
    }
  },
  {
    "name": "Big Snagtooth",
    "lat": 48.4639,
    "lon": -120.8917,
    "elevation_ft": 8330,
    "nwac_zone_slug": "cascade-east-central",
    "nearest_snotel": "606:WA:SNTL",
    "bulger_rank": 95,
    "best_seasons": [
      "spring",
      "summer"
    ],
    "dog_friendly": false,
    "ski_mountaineering": {
      "viable": true,
      "quality": "fair",
      "notes": "North-side glacier terrain near Mesahchie; remote, requires SR 20 access"
    }
  },
  {
    "name": "Switchback Peak",
    "lat": 47.4667,
    "lon": -120.9333,
    "elevation_ft": 8321,
    "nwac_zone_slug": "cascade-east-central",
    "nearest_snotel": "791:WA:SNTL",
    "bulger_rank": 97,
    "ski_mountaineering": {
      "viable": false,
      "quality": "not viable",
      "notes": "Rocky scramble in Stuart Range; no sustained ski terrain"
    }
  },
  {
    "name": "Abernathy Peak",
    "lat": 48.1083,
    "lon": -120.6778,
    "elevation_ft": 8321,
    "nwac_zone_slug": "cascade-east-central",
    "nearest_snotel": "606:WA:SNTL",
    "bulger_rank": 97,
    "ski_mountaineering": {
      "viable": true,
      "quality": "fair",
      "notes": "North-side snow slopes; remote Entiat area, typically combined with neighboring peaks"
    },
    "larch_scenery": {
      "quality": "good",
      "notes": "Entiat area with larch at upper elevations on approach"
    }
  },
  {
    "name": "Flora Mountain",
    "lat": 48.3917,
    "lon": -120.7778,
    "elevation_ft": 8320,
    "nwac_zone_slug": "cascade-east-central",
    "nearest_snotel": "606:WA:SNTL",
    "bulger_rank": 99,
    "best_seasons": [
      "summer"
    ],
    "dog_friendly": false,
    "ski_mountaineering": {
      "viable": true,
      "quality": "fair",
      "notes": "North-side glacier/snow terrain; remote, accessed via Stehekin area or Lake Chelan"
    },
    "larch_scenery": {
      "quality": "good",
      "notes": "Stehekin / Lake Chelan approach has larch at upper elevations"
    }
  },
  {
    "name": "Courtney Peak",
    "lat": 48.1972,
    "lon": -120.4528,
    "elevation_ft": 8392,
    "nwac_zone_slug": "cascade-east-central",
    "nearest_snotel": "515:WA:SNTL",
    "bulger_rank": 81,
    "ski_mountaineering": {
      "viable": false,
      "quality": "not viable",
      "notes": "Dry east-side scramble; mostly talus and heather"
    }
  },
  {
    "name": "Martin Peak (Methow)",
    "lat": 48.4375,
    "lon": -120.3694,
    "elevation_ft": 8375,
    "nwac_zone_slug": "cascade-east-central",
    "nearest_snotel": "515:WA:SNTL",
    "bulger_rank": 83,
    "ski_mountaineering": {
      "viable": false,
      "quality": "not viable",
      "notes": "Dry east-side Methow scramble; mostly talus and heather"
    }
  }
]
